{
    "success" : true,
    "message" : "Upcoming orders",
    "data" : [
        {
            "id": 1,
            "date_time" : "2025-07-30T12:55:36.547Z",
            "order_no": "RHS-1234",
            "status": "Upcoming",
            "amount": "2500",
            "origin" : {
                "address": "Hazrat Shahjalal International Airport",
                "city": "Dhaka",
                "latitude": "23.847931256544918",
                "longitude": "90.40571946545373"
            },
            "destination" : {
                "address": "Banani",
                "city": "Dhaka",
                "latitude": "23.79290916971965",
                "longitude": "90.40613258319588"
            },
            "package": {
                "seat": 3,
                "air_condition": "AC",
                "route": "Inside City",
                "category": "Shared"
            },
            "customer": {
                "name": "John Doe",
                "phone": "01711234567"
            }
        },
        {
            "id": 2,
            "date_time" : "2025-07-31T04:20:36.547Z",
            "order_no": "RHS-1235",
            "status": "Upcoming",
            "amount": "3000",
            "origin" : {
                "address": "Uttara",
                "city": "Dhaka",
                "latitude": "23.873909377059785",
                "longitude": "90.40038287075008"
            },
            "destination" : {
                "address": "Hazrat Shahjalal International Airport",
                "city": "Dhaka",
                "latitude": "23.847931256544918",
                "longitude": "90.40571946545373"
            },
            "package": {
                "seat": 5,
                "air_condition": "AC",
                "route": "Inside City",
                "category": "Luxury"
            },
            "customer": {
                "name": "Steve Jobs",
                "phone": "01811234567"
            }
        },
        {
            "id": 3,
            "date_time" : "2025-08-03T06:20:36.547Z",
            "order_no": "RHS-1236",
            "status": "Upcoming",
            "amount": "4000",
            "origin" : {
                "address": "Kalakandi",
                "city": "Dhaka",
                "latitude": "23.657535971658312",
                "longitude": "90.35851743969063"
            },
            "destination" : {
                "address": "Hazrat Shahjalal International Airport",
                "city": "Dhaka",
                "latitude": "23.847931256544918",
                "longitude": "90.40571946545373"
            },
            "package": {
                "seat": 7,
                "air_condition": "Non-AC",
                "route": "Inter City",
                "category": "Economy"
            },
            "customer": {
                "name": "Abraham Lincoln",
                "phone": "01511234567"
            }
        }
    ]
}